     3.04           OBSERVATION DATA    M                   RINEX VERSION / TYPE
sbf2rin-13.4.5                          20200519 162431 UTC PGM / RUN BY / DATE 
SABA                                                        MARKER NAME         
Unknown                                                     MARKER NUMBER       
Xiao                Albora Technologies S.L.                OBSERVER / AGENCY   
3025671             SEPT POLARX5E       5.3.2               REC # / TYPE / VERS 
13725               SEPPOLANT_X_MF  NONE                    ANT # / TYPE        
  4777973.1770   176346.3070  4207663.6200                  APPROX POSITION XYZ 
        0.0000        0.0000        0.0000                  ANTENNA: DELTA H/E/N
G   18 C1C L1C D1C S1C C1W S1W C2W L2W D2W S2W C2L L2L D2L  SYS / # / OBS TYPES 
       S2L C5Q L5Q D5Q S5Q                                  SYS / # / OBS TYPES 
E   20 C1C L1C D1C S1C C6C L6C D6C S6C C5Q L5Q D5Q S5Q C7Q  SYS / # / OBS TYPES 
       L7Q D7Q S7Q C8Q L8Q D8Q S8Q                          SYS / # / OBS TYPES 
S    8 C1C L1C D1C S1C C5I L5I D5I S5I                      SYS / # / OBS TYPES 
R    8 C1C L1C D1C S1C C2C L2C D2C S2C                      SYS / # / OBS TYPES 
C   20 C1P L1P D1P S1P C5P L5P D5P S5P C2I L2I D2I S2I C7I  SYS / # / OBS TYPES 
       L7I D7I S7I C6I L6I D6I S6I                          SYS / # / OBS TYPES 
SEPTENTRIO RECEIVERS OUTPUT ALIGNED CARRIER PHASES.         COMMENT             
NO FURTHER PHASE SHIFT APPLIED IN THE RINEX ENCODER.        COMMENT             
G L1C                                                       SYS / PHASE SHIFT   
G L2W                                                       SYS / PHASE SHIFT   
G L2L  0.00000                                              SYS / PHASE SHIFT   
G L5Q  0.00000                                              SYS / PHASE SHIFT   
E L1C  0.00000                                              SYS / PHASE SHIFT   
E L6C  0.00000                                              SYS / PHASE SHIFT   
E L5Q  0.00000                                              SYS / PHASE SHIFT   
E L7Q  0.00000                                              SYS / PHASE SHIFT   
E L8Q  0.00000                                              SYS / PHASE SHIFT   
S L1C                                                       SYS / PHASE SHIFT   
S L5I                                                       SYS / PHASE SHIFT   
R L1C                                                       SYS / PHASE SHIFT   
R L2C                                                       SYS / PHASE SHIFT   
C L1P  0.00000                                              SYS / PHASE SHIFT   
C L5P  0.00000                                              SYS / PHASE SHIFT   
C L2I                                                       SYS / PHASE SHIFT   
C L7I                                                       SYS / PHASE SHIFT   
C L6I                                                       SYS / PHASE SHIFT   
     1.000                                                  INTERVAL            
  2020     5    19    16     5    0.0000000     GPS         TIME OF FIRST OBS   
  2020     5    19    16     6   55.0000000     GPS         TIME OF LAST OBS    
    48                                                      # OF SATELLITES     
 C1C    0.000 C2C    0.000                                  GLONASS COD/PHS/BIS 
DBHZ                                                        SIGNAL STRENGTH UNIT
 10 R01  1 R06 -4 R07  5 R08  6 R12 -1 R13 -2 R14 -7 R22 -3 GLONASS SLOT / FRQ #
    R23  3 R24  2                                           GLONASS SLOT / FRQ #
                                                            END OF HEADER       
> 2020 05 19 16 05  0.0000000  0 48
C05                                                                                                                                  39881022.382 6 207670947.56406                        36.000    39881023.453 6 160584353.01606                        41.000    39881027.209 6 168749673.99906                        37.000
C06                                                                                                                                  40658779.869 5 211720956.82705                        34.000    40658780.681 6 163716064.80806                        39.000    40658782.647 6 172040617.60106                        37.000
C09                                                                                                                                  40401331.081 6 210380329.14006                        36.000    40401333.424 6 162679433.24506                        40.000    40401333.121 5 170951269.71605                        35.000
C11                                                                                                                                  25420084.671 6 132369044.18006                        37.000    25420085.848 7 102356138.92207                        43.000    25420087.488 6 107560703.07506                        41.000
C14                                                                                                                                  22757945.198 7 118506594.20507                        46.000    22757945.012 8  91636815.64608                        48.000    22757946.458 7  96296321.41607                        46.000
C16                                                                                                                                  40550501.248 6 211157117.76806                        37.000    40550507.706 6 163280094.97206                        41.000    40550506.784 5 171582472.51405                        35.000
C23  26688603.121 6 140249530.95906                        36.000    26688605.133 6 104731792.63306                        41.000    26688599.744 6 138974532.63006                        37.000                                                                    26688602.908 6 112928158.96106                        38.000
C27  24381533.874 6 128125833.78906                        41.000    24381535.505 7  95678395.17607                        44.000    24381531.831 7 126961045.15107                        43.000                                                                    24381537.618 7 103166269.61107                        42.000
C28  21785145.832 8 114481714.23608                        49.000    21785146.727 8  85489593.55708                        50.000    21785144.076 8 113440967.96608                        51.000                                                                    21785149.550 8  92180097.51308                        50.000
C33  23133619.469 7 121567994.96307                        46.000    23133646.246 7  90781404.80707                        47.000    23133616.596 8 120462822.03808                        48.000                                                                    23133635.329 7  97885983.10807                        46.000
C37  24902409.096 6 130863035.58306                        40.000    24902415.440 7  97722421.32807                        44.000    24902406.174 7 129673368.18207                        42.000                                                                    24902416.583 7 105370266.47207                        43.000
E01  25057356.727 7 131677300.39807                        44.000    25057360.057 7 106880934.47107                        43.000    25057358.392 7  98330456.24607                        46.000    25057357.227 7 100895593.88007                        46.000    25057357.717 8  99613027.13308                        49.000
E03  27597048.380 6 145023458.26606                        37.000    27597051.745 6 117713863.65306                        38.000    27597052.076 7 108296762.13107                        42.000    27597050.785 7 111121887.26507                        42.000    27597051.138 7 109709326.27007                        45.000
E07  27307829.569 6 143503643.31506                        37.000    27307833.909 6 116480265.60906                        39.000    27307835.818 7 107161855.17307                        42.000    27307833.945 7 109957353.03207                        42.000    27307835.023 7 108559596.68207                        45.000
E08  24191288.376 6 127126088.70206                        40.000    24191293.757 6 103186778.34606                        40.000    24191290.864 7  94931823.29507                        44.000    24191289.484 7  97408304.85507                        45.000    24191289.840 8  96170065.14508                        48.000
E13  23829526.945 7 125225001.89907                        46.000    23829530.229 7 101643684.68607                        47.000    23829528.348 8  93512186.64908                        49.000    23829527.447 8  95951630.33408                        51.000    23829527.875 8  94731910.56208                        53.000
E15  27435043.346 6 144172116.08306                        36.000    27435047.516 6 117022832.58906                        37.000    27435048.644 6 107661007.92406                        41.000    27435047.698 7 110469551.65707                        43.000    27435047.877 7 109065289.85907                        45.000
E21  25376231.941 6 133352993.72006                        41.000    25376235.529 6 108241076.11206                        41.000    25376235.028 7  99581787.02907                        46.000    25376234.095 7 102179566.30707                        47.000    25376234.138 8 100880677.74008                        49.000
E26  23122020.311 7 121507039.57307                        47.000    23122022.946 7  98625854.32707                        46.000    23122022.959 8  90735785.92608                        49.000    23122022.103 8  93102801.69908                        50.000    23122022.394 8  91919294.88408                        52.000
E27  28509366.235 5 149817720.32105                        31.000    28509374.952 5 121605288.16105                        31.000    28509375.422 6 111876891.80006                        36.000    28509373.716 6 114795389.22906                        36.000    28509374.228 6 113336153.58506                        39.000
E31  27893168.297 6 146579585.95706                        36.000    27893169.990 6 118976951.47706                        37.000    27893171.494 6 109458805.17506                        40.000    27893171.044 7 112314245.35307                        43.000    27893171.045 7 110886529.33207                        44.000
E33  28019545.930 6 147243716.19906                        36.000    28019550.793 6 119516030.47506                        37.000    28019549.117 6 109954738.58606                        41.000    28019547.979 7 112823115.09407                        42.000    28019548.239 7 111388931.41407                        44.000
G01  23952556.108 6 125871540.93706                        40.000    23952555.854 4        24.000    23952560.369 4  98081740.54004                        24.000    23952560.469 6  98081746.55806                        39.000    23952557.591 7  93994992.72007                        44.000
G07  24852061.020 6 130598449.25406                        38.000    24852060.533 3        19.000    24852062.039 3 101765030.70703                        19.000    24852060.895 5 101765032.70205                        34.000
G08  20895911.612 8 109808738.83108                        49.000    20895911.013 8        52.000    20895913.658 8  85565260.70208                        52.000    20895914.708 7  85565276.70007                        47.000    20895910.760 8  82000042.28008                        51.000
G10  21133802.747 8 111058878.12308                        51.000    21133802.206 8        52.000    21133804.821 8  86539394.58508                        52.000    21133805.055 7  86539397.58607                        46.000    21133801.430 8  82933581.87708                        51.000
G11  22194636.433 7 116633601.07707                        43.000    22194635.754 4        27.000    22194635.687 4  90883324.00304                        27.000
G16  21925621.647 7 115219908.03607                        44.000    21925620.767 4        29.000    21925620.671 4  89781741.86904                        29.000
G20  22470672.099 6 118084176.26806                        41.000    22470670.843 4        25.000    22470671.438 4  92013646.66504                        25.000
G21  24929507.143 6 131005436.50206                        37.000    24929505.985 2        15.000    24929506.374 2 102082154.52302                        15.000
G22  24883403.731 6 130763189.60806                        38.000    24883402.739 2        17.000    24883405.447 2 101893416.76802                        17.000
G26  24241746.033 6 127391209.07606                        38.000    24241745.452 5        31.000    24241751.217 5  99265905.07705                        31.000    24241751.861 6  99265882.07506                        36.000    24241750.654 7  95129807.45407                        45.000
G27  20304551.394 8 106701130.85308                        50.000    20304550.786 9        54.000    20304552.777 9  83143748.59409                        54.000    20304553.157 8  83143750.59308                        48.000    20304550.935 8  79679417.17508                        53.000
G30  25466483.534 5 133827272.62205                        35.000    25466483.181 1        11.000    25466485.908 1 104280988.23701                        11.000    25466486.975 5 104280996.23505                        30.000    25466485.071 5  99935955.13305                        35.000
G32  24846096.678 6 130567131.42006                        37.000    24846096.388 5        30.000    24846101.365 5 101740644.15805                        30.000    24846102.395 6 101740648.17706                        37.000    24846100.195 7  97501473.72007                        42.000
R01  24059761.698 6 128613218.92106                        36.000    24059772.604 5 100032552.15205                        33.000
R06  23271730.143 6 124182381.95906                        40.000
R07  20864674.391 7 111690189.00307                        47.000    20864678.910 7  86870212.61107                        45.000
R08  21445294.478 7 114838593.31307                        46.000    21445299.363 7  89318940.12707                        43.000
R12  23200434.202 7 123932525.39507                        43.000    23200442.352 6  96392010.06806                        40.000
R13  21115378.769 5 112754912.34205                        35.000    21115381.466 6  87698297.85206                        37.000
R14  22186931.498 7 118268832.72607                        46.000    22186936.662 7  91986890.55907                        44.000
R22  20835799.987 8 111222894.60908                        48.000    20835804.356 7  86506723.47007                        45.000
R23  20247795.932 8 108312025.50408                        51.000    20247801.597 6  84242740.66806                        40.000
R24  22833364.456 7 122100257.24707                        43.000    22833368.654 6  94966895.65906                        39.000
S23  38217589.105 6 200834788.29806                        41.000    38217563.301 7 149973925.66807                        43.000
S25  37560863.877 7 197383682.65407                        44.000
S36  37534840.250 7 197246924.78207                        44.000    37534814.665 7 147294673.95707                        46.000
> 2020 05 19 16 05  1.0000000  0 48
C05                                                                                                                                  39881024.901 6 207670960.94806                        36.000    39881026.002 6 160584363.37206                        41.000    39881029.775 6 168749684.86706                        37.000
C06                                                                                                                                  40658609.377 5 211720069.74905                        34.000    40658610.162 6 163715378.85406                        39.000    40658612.433 6 172039896.77106                        37.000
C09                                                                                                                                  40401011.993 6 210378668.98406                        36.000    40401014.517 6 162678149.50106                        40.000    40401014.430 6 170949920.68406                        36.000
C11                                                                                                                                  25420536.177 6 132371395.12106                        37.000    25420537.368 7 102357956.81007                        43.000    25420538.990 6 107562613.40306                        41.000
C14                                                                                                                                  22757876.650 7 118506236.72207                        46.000    22757876.419 8  91636539.20908                        48.000    22757877.843 7  96296030.92807                        46.000
C16                                                                                                                                  40550295.665 6 211156047.25306                        37.000    40550302.235 6 163279267.17806                        41.000    40550301.195 5 171581602.62505                        35.000
C23  26689183.924 6 140252585.00506                        36.000    26689186.288 6 104734073.25006                        41.000    26689180.825 6 138977558.90906                        37.000                                                                    26689184.097 6 112930618.07306                        39.000
C27  24381079.955 6 128123448.44406                        41.000    24381081.593 7  95676613.90607                        44.000    24381077.851 7 126958681.47607                        43.000                                                                    24381083.719 7 103164348.94407                        42.000
C28  21785054.818 8 114481235.88608                        48.000    21785055.707 8  85489236.34508                        50.000    21785053.049 8 113440493.96708                        51.000                                                                    21785058.546 8  92179712.35008                        50.000
C33  23133254.455 7 121566076.88907                        46.000    23133281.242 7  90779972.48907                        47.000    23133251.685 7 120460921.41007                        47.000                                                                    23133270.327 7  97884438.69707                        46.000
C37  24902830.491 6 130865250.27906                        40.000    24902836.876 7  97724075.15607                        44.000    24902827.622 7 129675562.75207                        42.000                                                                    24902838.109 7 105372049.72307                        43.000
E01  25057373.825 7 131677390.51807                        44.000    25057377.186 7 106881007.60907                        43.000    25057375.522 7  98330523.54207                        46.000    25057374.352 7 100895662.93407                        46.000    25057374.861 8  99613095.30808                        49.000
E03  27597204.893 6 145024280.49506                        37.000    27597208.257 6 117714531.04006                        38.000    27597208.588 7 108297376.13307                        42.000    27597207.281 7 111122517.28607                        42.000    27597207.591 7 109709948.28207                        45.000
E07  27307289.770 6 143500806.06306                        36.000    27307294.070 6 116477962.62806                        39.000    27307295.915 7 107159736.43307                        42.000    27307294.076 7 109955179.01707                        42.000    27307295.084 7 108557450.30407                        45.000
E08  24191003.675 6 127124592.70706                        40.000    24191009.125 6 103185564.05906                        41.000    24191006.213 7  94930706.15807                        44.000    24191004.786 7  97407158.57707                        45.000    24191005.163 8  96168933.43608                        48.000
E13  23829733.291 7 125226086.44807                        46.000    23829736.623 7 101644565.00807                        47.000    23829734.714 8  93512996.54508                        49.000    23829733.834 8  95952461.35608                        51.000    23829734.249 8  94732731.02008                        53.000
E15  27435458.731 6 144174299.79306                        36.000    27435463.080 6 117024605.09106                        37.000    27435464.229 6 107662638.61106                        41.000    27435463.293 7 110471224.87607                        43.000    27435463.420 7 109066941.81007                        45.000
E21  25376720.306 6 133355559.84806                        41.000    25376723.825 6 108243159.00806                        41.000    25376723.359 7  99583703.28807                        46.000    25376722.441 7 102181532.56107                        47.000    25376722.448 8 100882618.99708                        49.000
E26  23121825.047 7 121506013.30707                        47.000    23121827.646 7  98625021.31407                        46.000    23121827.658 8  90735019.55808                        49.000    23121826.797 8  93102015.33708                        50.000    23121827.105 8  91918518.51908                        52.000
E27  28509965.734 5 149820870.34105                        31.000    28509974.263 5 121607845.01305                        31.000    28509974.916 6 111879244.11306                        36.000    28509973.089 6 114797802.90506                        36.000    28509973.703 6 113338536.57906                        39.000
E31  27892739.930 6 146577333.97506                        36.000    27892741.389 6 118975123.57906                        37.000    27892742.914 6 109457123.49506                        40.000    27892742.470 7 112312519.81007                        43.000    27892742.489 7 110884825.72307                        44.000
E33  28019139.465 6 147241579.45306                        36.000    28019144.199 6 119514296.10606                        37.000    28019142.431 6 109953142.96606                        40.000    28019141.354 7 112821477.86507                        42.000    28019141.622 7 111387314.99107                        44.000
G01  23951966.814 6 125868445.09206                        40.000    23951966.560 4        24.000    23951971.233 4  98079328.20504                        24.000    23951971.323 6  98079334.21206                        39.000    23951968.472 7  93992680.88707                        44.000
G07  24852244.351 6 130599412.32106                        38.000    24852243.860 3        19.000    24852245.322 3 101765781.16303                        19.000    24852244.235 5 101765783.12705                        35.000
G08  20895594.987 8 109807074.46508                        49.000    20895594.388 8        52.000    20895596.933 8  85563963.79108                        52.000    20895597.939 7  85563979.78607                        47.000    20895594.040 8  81998799.40408                        51.000
G10  21133909.626 8 111059439.75808                        51.000    21133909.085 8        52.000    21133911.688 8  86539832.22308                        52.000    21133911.914 7  86539835.22707                        46.000    21133908.311 8  82934001.28408                        51.000
G11  22194120.395 7 116630889.26007                        43.000    22194119.711 4        27.000    22194119.679 4  90881210.89704                        27.000
G16  21926193.863 7 115222915.12007                        44.000    21926192.983 4        29.000    21926192.936 4  89784085.04904                        29.000
G20  22471168.760 6 118086785.38506                        41.000    22471167.499 4        25.000    22471167.905 4  92015679.73704                        25.000
G21  24930000.891 6 131008032.51206                        37.000    24929999.742 2        15.000    24930000.390 2 102084177.39602                        15.000
G22  24882694.298 6 130759461.81106                        38.000    24882693.301 2        17.000    24882696.069 2 101890512.01202                        17.000
G26  24242452.562 6 127394920.84606                        38.000    24242451.982 5        31.000    24242457.550 5  99268797.35805                        31.000    24242457.925 6  99268774.34506                        36.000    24242456.979 7  95132579.22107                        45.000
G27  20304615.937 8 106701469.81908                        50.000    20304615.325 9        54.000    20304617.280 9  83144012.72209                        54.000    20304617.701 8  83144014.72708                        48.000    20304615.444 8  79679670.29908                        53.000
G30  25466431.147 5 133826998.10905                        34.000    25466430.776 1        11.000    25466433.661 1 104280774.33201                        11.000    25466434.855 5 104280782.33005                        31.000    25466432.851 5  99935750.14905                        35.000
G32  24845570.712 6 130564367.85206                        37.000    24845570.422 5        30.000    24845575.511 5 101738490.72905                        30.000    24845576.466 6 101738494.76406                        37.000    24845574.386 7  97499410.01707                        42.000
R01  24058929.128 6 128608766.36206                        36.000    24058938.975 5 100029089.05405                        33.000
R06  23272317.560 6 124185515.34606                        40.000
R07  20864649.090 7 111690054.69807                        47.000    20864653.777 7  86870108.15007                        45.000
R08  21444644.084 7 114835111.39807                        46.000    21444649.059 7  89316231.97907                        43.000
R12  23201236.172 7 123936809.18907                        43.000    23201244.284 6  96395341.91106                        40.000
R13  21115781.780 6 112757066.89806                        36.000    21115785.489 6  87699973.60606                        37.000
R14  22186616.433 7 118267153.80607                        46.000    22186621.556 7  91985584.73807                        44.000
R22  20836140.862 8 111224714.03508                        48.000    20836145.472 7  86508138.58407                        45.000
R23  20247528.264 8 108310593.66208                        51.000    20247533.443 6  84241627.00806                        40.000
R24  22832849.287 7 122097504.17307                        43.000    22832853.724 6  94964754.37206                        39.000
S23  38217589.762 6 200834795.19406                        41.000    38217564.665 7 149973930.83707                        43.000
S25  37560839.068 7 197383550.64607                        43.000
S36  37534841.932 7 197246926.85507                        44.000    37534815.041 7 147294675.76707                        46.000
> 2020 05 19 16 05  2.0000000  0 48
C05                                                                                                                                  39881027.486 6 207670974.44006                        36.000    39881028.778 6 160584373.81106                        41.000    39881032.303 6 168749695.82706                        37.000
C06                                                                                                                                  40658439.171 5 211719182.95005                        34.000    40658439.872 6 163714693.11706                        39.000    40658442.118 6 172039176.17506                        37.000
C09                                                                                                                                  40400693.162 6 210377009.02706                        36.000    40400695.728 6 162676865.92106                        40.000    40400695.708 5 170948571.85705                        35.000
C11                                                                                                                                  25420987.775 6 132373746.25306                        37.000    25420988.907 7 102359774.86207                        43.000    25420990.493 6 107564523.90506                        41.000
C14                                                                                                                                  22757808.324 7 118505879.91107                        46.000    22757807.992 8  91636263.30308                        48.000    22757809.344 7  96295740.98607                        46.000
C16                                                                                                                                  40550090.357 6 211154977.00106                        37.000    40550096.666 6 163278439.61206                        41.000    40550095.531 5 171580733.00005                        35.000
C23  26689765.013 5 140255639.04605                        35.000    26689767.551 6 104736353.84806                        41.000    26689762.509 6 138980585.15506                        37.000                                                                    26689765.244 6 112933077.14006                        38.000
C27  24380626.040 6 128121063.26206                        41.000    24380627.745 7  95674832.76407                        44.000    24380623.946 7 126956317.98007                        43.000                                                                    24380629.855 7 103162428.40407                        42.000
C28  21784963.833 8 114480757.88208                        48.000    21784964.784 8  85488879.39508                        50.000    21784962.134 8 113440020.30908                        51.000                                                                    21784967.590 8  92179327.46308                        50.000
C33  23132889.564 7 121564159.38907                        46.000    23132916.389 7  90778540.58907                        47.000    23132886.861 7 120459021.33807                        47.000                                                                    23132905.438 7  97882894.73207                        46.000
C37  24903252.014 6 130867465.38806                        40.000    24903258.441 7  97725729.30007                        44.000    24903249.207 7 129677757.71207                        42.000                                                                    24903259.684 7 105373833.32607                        43.000
E01  25057391.134 7 131677481.24507                        44.000    25057394.325 7 106881081.25207                        43.000    25057392.808 7  98330591.29907                        46.000    25057391.604 7 100895732.45007                        46.000    25057392.130 8  99613163.94508                        49.000
E03  27597361.438 6 145025103.27606                        37.000    27597364.637 6 117715198.88606                        38.000    27597365.094 7 108297990.54707                        42.000    27597363.849 7 111123147.72707                        42.000    27597364.156 7 109710570.71007                        45.000
E07  27306749.979 6 143497968.91506                        37.000    27306754.047 6 116475659.75806                        39.000    27306755.982 7 107157617.78807                        42.000    27306754.186 7 109953005.10407                        42.000    27306755.175 7 108555304.02507                        45.000
E08  24190719.071 6 127123097.20106                        40.000    24190724.551 6 103184350.16306                        40.000    24190721.583 7  94929589.37707                        44.000    24190720.243 7  97406012.66307                        45.000    24190720.594 8  96167802.09008                        48.000
E13  23829939.714 7 125227171.23107                        46.000    23829943.013 7 101645445.50807                        47.000    23829941.127 8  93513806.60408                        49.000    23829940.240 8  95953292.54608                        51.000    23829940.677 8  94733551.64408                        53.000
E15  27435874.262 6 144176483.59906                        36.000    27435878.526 6 117026377.65506                        37.000    27435879.794 6 107664269.36706                        41.000    27435878.866 7 110472898.17707                        43.000    27435878.972 7 109068593.83907                        45.000
E21  25377208.697 6 133358126.35006                        41.000    25377212.201 6 108245242.20206                        41.000    25377211.745 7  99585619.83307                        46.000    25377210.848 7 102183499.10007                        47.000    25377210.843 8 100884560.53908                        49.000
E26  23121629.870 7 121504987.30307                        47.000    23121632.430 7  98624188.51807                        46.000    23121632.453 8  90734253.38408                        49.000    23121631.545 8  93101229.17308                        50.000    23121631.865 8  91917742.35108                        52.000
E27  28510565.296 5 149824020.38705                        30.000    28510573.383 5 121610401.87905                        31.000    28510574.390 6 111881596.42006                        37.000    28510572.530 6 114800216.56806                        36.000    28510573.209 6 113340919.56306                        39.000
E31  27892311.316 6 146575082.42306                        36.000    27892312.954 6 118973296.01106                        37.000    27892314.478 6 109455442.15006                        40.000    27892314.010 7 112310794.59407                        43.000    27892314.041 7 110883122.44107                        44.000
E33  28018732.953 6 147239442.87006                        36.000    28018737.572 6 119512561.88306                        37.000    28018735.892 6 109951547.48806                        40.000    28018734.709 7 112819840.75307                        42.000    28018735.057 7 111385698.69407                        44.000
G01  23951377.792 6 125865349.53706                        39.000    23951377.538 4        24.000    23951382.159 4  98076916.08704                        24.000    23951381.989 6  98076922.10206                        40.000    23951379.447 7  93990369.27707                        44.000
G07  24852427.372 6 130600375.93606                        38.000    24852426.881 3        19.000    24852428.685 3 101766532.02903                        19.000    24852427.722 5 101766534.02505                        34.000
G08  20895278.252 8 109805410.50708                        49.000    20895277.653 8        52.000    20895280.293 8  85562667.20208                        52.000    20895281.283 7  85562683.20307                        47.000    20895277.437 8  81997556.84608                        51.000
G10  21134016.654 8 111060002.14008                        50.000    21134016.118 8        52.000    21134018.699 8  86540270.44408                        52.000    21134018.838 7  86540273.44707                        46.000    21134015.329 8  82934421.24008                        51.000
G11  22193604.636 7 116628177.74307                        43.000    22193603.957 4        27.000    22193603.699 4  90879098.03204                        27.000
G16  21926766.150 7 115225922.68207                        44.000    21926765.274 4        29.000    21926765.275 4  89786428.60404                        29.000
G20  22471665.377 6 118089394.99506                        41.000    22471664.112 4        25.000    22471664.483 4  92017713.19804                        25.000
G21  24930495.023 6 131010628.58406                        37.000    24930493.883 2        15.000    24930494.406 2 102086200.30102                        15.000
G22  24881984.890 6 130755734.17706                        38.000    24881983.889 2        17.000    24881986.722 2 101887607.37702                        17.000
G26  24243158.875 6 127398632.76006                        38.000    24243158.294 5        30.000    24243163.950 5  99271689.74605                        30.000    24243163.981 6  99271666.73206                        36.000    24243163.352 7  95135351.09907                        45.000
G27  20304680.608 8 106701809.31508                        50.000    20304679.996 9        54.000    20304681.886 9  83144277.26409                        54.000    20304682.334 8  83144279.26708                        48.000    20304680.038 8  79679923.81708                        53.000
G30  25466379.176 5 133826724.28605                        34.000    25466378.810 1        11.000    25466381.566 1 104280560.98901                        11.000    25466382.772 5 104280568.92405                        31.000    25466380.927 6  99935545.65506                        36.000
G32  24845045.116 6 130561604.40906                        36.000    24845044.826 5        31.000    24845049.689 5 101736337.40805                        31.000    24845050.588 6 101736341.44506                        37.000    24845048.622 7  97497346.41307                        42.000
R01  24058096.430 6 128604313.84606                        36.000    24058105.863 5 100025625.98905                        33.000
R06  23272905.297 6 124188649.42306                        40.000
R07  20864624.285 7 111689921.41807                        47.000    20864628.948 7  86870004.49007                        45.000
R08  21443993.734 7 114831630.08307                        46.000    21443998.986 7  89313524.28707                        43.000
R12  23202037.969 7 123941093.14107                        43.000    23202046.359 6  96398673.85706                        40.000
R13  21116185.171 5 112759222.23605                        35.000    21116189.373 6  87701650.01306                        37.000
R14  22186301.510 7 118265475.81107                        46.000    22186306.866 7  91984279.63107                        44.000
R22  20836481.780 8 111226533.79008                        48.000    20836486.379 7  86509553.94807                        45.000
R23  20247260.634 8 108309162.16108                        51.000    20247265.914 6  84240513.61306                        40.000
R24  22832334.056 7 122094751.25207                        43.000    22832339.422 6  94962613.21706                        39.000
S23  38217589.708 6 200834802.14706                        41.000    38217565.921 7 149973936.03607                        43.000
S25  37560814.219 7 197383418.70107                        44.000
S36  37534841.556 7 197246928.93507                        44.000    37534815.408 7 147294677.58607                        46.000
> 2020 05 19 16 05  3.0000000  0 48
C05                                                                                                                                  39881030.266 6 207670988.21506                        36.000    39881031.390 6 160584384.46506                        41.000    39881035.008 6 168749707.01806                        37.000
C06                                                                                                                                  40658268.759 5 211718296.54205                        34.000    40658269.626 6 163714007.70906                        39.000    40658271.849 6 172038455.90506                        37.000
C09                                                                                                                                  40400374.279 6 210375349.44606                        36.000    40400377.008 6 162675582.63106                        40.000    40400377.106 5 170947223.29705                        35.000
C11                                                                                                                                  25421439.060 6 132376097.75006                        37.000    25421440.588 7 102361593.17307                        43.000    25421442.044 6 107566434.66906                        41.000
C14                                                                                                                                  22757739.937 7 118505523.90207                        46.000    22757739.708 8  91635988.01308                        48.000    22757740.948 7  96295451.70007                        46.000
C16                                                                                                                                  40549885.053 6 211153907.20706                        37.000    40549891.123 6 163277612.36406                        41.000    40549890.044 5 171579863.68505                        35.000
C23  26690346.136 6 140258693.18606                        36.000    26690348.765 6 104738634.53606                        41.000    26690343.720 6 138983611.58106                        37.000                                                                    26690346.510 6 112935536.33306                        39.000
C27  24380172.264 6 128118678.37206                        41.000    24380173.953 7  95673051.84307                        44.000    24380169.965 7 126953954.77807                        43.000                                                                    24380176.090 7 103160508.10607                        42.000
C28  21784872.999 8 114480280.35608                        48.000    21784873.931 8  85488522.80208                        50.000    21784871.224 8 113439547.12308                        51.000                                                                    21784876.725 8  92178942.96108                        50.000
C33  23132524.779 7 121562242.59107                        46.000    23132551.597 7  90777109.21007                        47.000    23132522.140 7 120457121.96607                        47.000                                                                    23132540.658 7  97881351.33507                        46.000
C37  24903673.546 6 130869681.05506                        40.000    24903680.055 7  97727383.84807                        44.000    24903670.954 6 129679953.23106                        41.000                                                                    24903681.342 7 105375617.35707                        43.000
E01  25057408.472 7 131677572.71007                        44.000    25057411.732 7 106881155.49507                        43.000    25057410.214 7  98330659.59307                        46.000    25057409.009 7 100895802.53507                        47.000    25057409.534 8  99613233.13408                        49.000
E03  27597518.416 6 145025926.75306                        37.000    27597521.386 6 117715867.27906                        38.000    27597521.793 7 108298605.47707                        42.000    27597520.573 7 111123778.69707                        42.000    27597520.855 7 109711193.65907                        45.000
E07  27306209.979 6 143495132.03106                        36.000    27306214.066 6 116473357.10506                        39.000    27306216.102 7 107155499.34807                        42.000    27306214.338 7 109950831.39207                        42.000    27306215.348 7 108553157.94807                        45.000
E08  24190434.529 6 127121602.30706                        40.000    24190440.088 6 103183136.78506                        40.000    24190437.110 7  94928473.05607                        44.000    24190435.751 7  97404867.22207                        45.000    24190436.123 8  96166671.20808                        48.000
E13  23830146.152 7 125228256.37007                        46.000    23830149.498 7 101646326.30407                        47.000    23830147.601 8  93514616.93508                        49.000    23830146.756 8  95954124.01708                        51.000    23830147.163 8  94734372.54608                        53.000
E15  27436289.864 6 144178667.59806                        36.000    27436294.045 6 117028150.39506                        37.000    27436295.366 6 107665900.30606                        41.000    27436294.523 7 110474571.65807                        43.000    27436294.574 7 109070246.05007                        45.000
E21  25377697.283 7 133360693.37007                        42.000    25377700.867 6 108247325.82706                        41.000    25377700.212 7  99587536.76407                        46.000    25377699.356 7 102185466.04307                        47.000    25377699.341 8 100886502.47608                        49.000
E26  23121434.688 7 121503961.69007                        47.000    23121437.219 7  98623356.04007                        46.000    23121437.243 8  90733487.50508                        49.000    23121436.368 8  93100443.31608                        50.000    23121436.692 8  91916966.48208                        52.000
E27  28511164.576 5 149827170.59305                        30.000    28511172.830 5 121612958.87705                        31.000    28511173.881 6 111883948.83106                        36.000    28511172.092 6 114802630.35706                        36.000    28511172.773 6 113343302.66506                        39.000
E31  27891882.848 6 146572831.40806                        36.000    27891884.400 6 118971468.89006                        37.000    27891886.054 6 109453761.20206                        40.000    27891885.678 7 112309069.79107                        43.000    27891885.686 7 110881419.56607                        44.000
E33  28018326.299 6 147237306.60406                        36.000    28018330.952 6 119510827.89006                        37.000    28018329.289 6 109949952.20606                        40.000    28018328.191 7 112818203.86107                        42.000    28018328.533 7 111384082.60707                        44.000
G01  23950788.562 6 125862254.40706                        40.000    23950788.308 4        24.000    23950793.247 4  98074504.29904                        24.000    23950793.172 6  98074510.30506                        39.000    23950790.426 7  93988057.98607                        44.000
G07  24852610.889 6 130601340.27906                        39.000    24852610.393 3        19.000    24852612.134 3 101767283.45103                        19.000    24852611.301 5 101767285.46405                        34.000
G08  20894961.611 8 109803747.11008                        49.000    20894961.012 8        52.000    20894963.751 8  85561371.05008                        52.000    20894964.780 7  85561387.05107                        47.000    20894960.900 8  81996314.69308                        51.000
G10  21134123.882 8 111060565.38508                        51.000    21134123.341 8        52.000    21134125.879 8  86540709.33608                        52.000    21134125.961 7  86540712.34207                        46.000    21134122.513 8  82934841.85108                        51.000
G11  22193088.565 7 116625466.66007                        43.000    22193087.886 4        27.000    22193087.803 4  90876985.50004                        27.000
G16  21927338.482 7 115228930.86707                        44.000    21927337.602 4        29.000    21927337.721 4  89788772.64604                        29.000
G20  22472162.083 6 118092005.26906                        41.000    22472160.823 4        25.000    22472161.173 4  92019747.17904                        25.000
G21  24930989.065 6 131013224.84006                        37.000    24930987.921 2        15.000    24930988.489 2 102088223.35702                        15.000
G22  24881275.548 6 130752006.84706                        38.000    24881274.551 2        17.000    24881277.419 2 101884702.96902                        17.000
G26  24243865.401 6 127402344.95706                        38.000    24243864.820 5        30.000    24243870.373 5  99274582.35705                        30.000    24243870.294 6  99274559.34806                        36.000    24243869.779 7  95138123.18407                        45.000
G27  20304745.330 8 106702149.47008                        50.000    20304744.717 9        54.000    20304746.617 9  83144542.32009                        54.000    20304747.076 8  83144544.32408                        48.000    20304744.786 8  79680177.83208                        53.000
G30  25466327.303 5 133826451.23605                        34.000    25466326.937 1        11.000    25466329.599 1 104280348.20101                        11.000    25466330.788 5 104280356.15705                        31.000    25466328.963 6  99935341.74006                        36.000
G32  24844519.214 6 130558841.22706                        37.000    24844518.918 5        31.000    24844523.893 5 101734184.29205                        31.000    24844524.779 6 101734188.31906                        37.000    24844522.816 7  97495283.01607                        42.000
R01  24057264.159 6 128599861.47406                        37.000    24057273.699 5 100022163.01705                        33.000
R06  23273493.141 6 124191784.29506                        40.000
R07  20864599.583 7 111689789.28207                        47.000    20864604.422 7  86869901.72207                        45.000
R08  21443343.755 7 114828149.49007                        46.000    21443349.322 7  89310817.17207                        43.000
R12  23202840.153 7 123945377.38607                        43.000    23202848.173 6  96402006.05406                        40.000
R13  21116589.041 6 112761378.62106                        36.000    21116593.279 6  87703327.18806                        37.000
R14  22185986.841 7 118263798.90207                        47.000    22185992.162 7  91982975.36807                        44.000
R22  20836822.829 8 111228353.99608                        48.000    20836827.144 7  86510969.66407                        45.000
R23  20246993.119 8 108307731.15508                        51.000    20246998.346 6  84239400.62006                        40.000
R24  22831819.155 7 122091998.62107                        43.000    22831825.163 6  94960472.30006                        39.000
S23  38217590.281 6 200834809.43006                        41.000    38217567.316 7 149973941.46007                        43.000
S25  37560790.198 7 197383287.01507                        44.000
S36  37534841.677 7 197246931.26007                        44.000    37534815.859 7 147294679.62607                        46.000
> 2020 05 19 16 05  4.0000000  0 48
C05                                                                                                                                  39881032.925 6 207671001.66006                        36.000    39881034.015 6 160584394.86106                        41.000    39881037.598 6 168749717.95006                        37.000
C06                                                                                                                                  40658098.710 5 211717410.03405                        34.000    40658099.439 6 163713322.21406                        39.000    40658101.549 6 172037735.54006                        37.000
C09                                                                                                                                  40400055.585 6 210373689.65706                        36.000    40400058.233 6 162674299.20506                        40.000    40400058.437 5 170945874.60405                        35.000
C11                                                                                                                                  25421890.475 6 132378449.00806                        37.000    25421892.137 7 102363411.33007                        43.000    25421893.607 6 107568345.26206                        41.000
C14                                                                                                                                  22757671.636 7 118505168.16507                        46.000    22757671.492 8  91635712.93508                        48.000    22757672.614 7  96295162.63307                        46.000
C16                                                                                                                                  40549679.918 6 211152837.29406                        37.000    40549685.670 6 163276785.02906                        41.000    40549684.662 5 171578994.28805                        35.000
C23  26690927.192 5 140261746.94905                        35.000    26690929.910 6 104740914.93406                        41.000    26690925.223 6 138986637.56006                        37.000                                                                    26690927.624 6 112937995.19806                        39.000
C27  24379718.449 6 128116293.23906                        41.000    24379720.012 7  95671270.74407                        44.000    24379716.055 7 126951591.33207                        43.000                                                                    24379722.258 7 103158587.61807                        42.000
C28  21784782.139 8 114479802.75408                        48.000    21784783.059 8  85488166.15508                        50.000    21784780.379 8 113439073.86708                        51.000                                                                    21784785.845 8  92178558.40208                        50.000
C33  23132160.066 7 121560325.96107                        46.000    23132186.886 7  90775677.95907                        47.000    23132157.495 7 120455222.75307                        47.000                                                                    23132175.905 7  97879808.07207                        46.000
C37  24904095.263 6 130871896.71706                        40.000    24904101.682 7  97729038.40307                        43.000    24904092.499 6 129682148.75506                        41.000                                                                    24904102.979 7 105377401.40007                        43.000
E01  25057425.912 7 131677664.38007                        44.000    25057429.140 7 106881229.90507                        43.000    25057427.677 7  98330728.04507                        46.000    25057426.417 7 100895872.77307                        47.000    25057426.978 8  99613302.48008                        49.000
E03  27597675.097 6 145026750.37006                        37.000    27597678.055 6 117716535.80306                        38.000    27597678.470 7 108299220.50907                        42.000    27597677.294 7 111124409.78007                        42.000    27597677.586 7 109711816.71707                        45.000
E07  27305670.138 6 143492294.85806                        37.000    27305674.261 6 116471054.21806                        39.000    27305676.217 7 107153380.69707                        42.000    27305674.445 7 109948657.46607                        42.000    27305675.449 7 108551011.66207                        45.000
E08  24190150.244 6 127120107.49106                        40.000    24190155.608 6 103181923.45806                        40.000    24190152.658 7  94927356.79707                        44.000    24190151.332 7  97403721.84807                        45.000    24190151.669 8  96165540.39208                        48.000
E13  23830352.616 7 125229341.32707                        46.000    23830355.976 7 101647206.94907                        47.000    23830354.092 8  93515427.13308                        49.000    23830353.190 8  95954955.35208                        51.000    23830353.631 8  94735193.31208                        53.000
E15  27436705.261 6 144180851.32806                        36.000    27436709.683 6 117029922.90906                        37.000    27436710.970 6 107667531.00506                        41.000    27436710.049 7 110476244.89107                        43.000    27436710.122 7 109071898.01407                        45.000
E21  25378185.662 6 133363260.36306                        41.000    25378189.397 6 108249409.43506                        41.000    25378188.704 7  99589453.67307                        46.000    25378187.820 7 102187432.95807                        47.000    25378187.821 8 100888444.38808                        49.000
E26  23121239.508 7 121502935.92507                        47.000    23121242.005 7  98622523.44407                        47.000    23121242.064 8  90732721.51408                        49.000    23121241.191 8  93099657.34408                        50.000    23121241.497 8  91916190.50108                        52.000
E27  28511763.550 5 149830320.36305                        30.000    28511772.285 5 121615515.47605                        30.000    28511773.273 6 111886300.94506                        37.000    28511771.486 6 114805043.85206                        36.000    28511772.252 6 113345685.47206                        39.000
E31  27891454.594 6 146570580.40106                        36.000    27891456.055 6 118969641.79606                        37.000    27891457.678 6 109452080.25206                        40.000    27891457.212 7 112307344.99807                        42.000    27891457.341 7 110879716.69307                        44.000
E33  28017919.861 6 147235170.07106                        36.000    28017924.283 6 119509093.69006                        37.000    28017922.797 6 109948356.75106                        41.000    28017921.565 7 112816566.78207                        42.000    28017921.968 7 111382466.33907                        44.000
G01  23950199.501 6 125859159.15306                        40.000    23950199.251 4        24.000    23950204.294 4  98072092.41704                        24.000    23950204.207 6  98072098.42106                        39.000    23950201.363 7  93985746.60107                        44.000
G07  24852794.198 6 130602304.78806                        39.000    24852793.702 3        19.000    24852795.618 3 101768035.00303                        19.000    24852795.589 5 101768037.04305                        34.000
G08  20894645.164 8 109802083.71308                        49.000    20894644.565 8        52.000    20894647.214 8  85560074.89808                        52.000    20894648.174 7  85560090.90107                        47.000    20894644.397 8  81995072.55408                        51.000
G10  21134231.230 8 111061128.96808                        51.000    21134230.694 8        52.000    21134233.117 8  86541148.49308                        52.000    21134233.257 7  86541151.49907                        46.000    21134229.762 8  82935262.70908                        51.000
G11  22192572.563 7 116622755.44407                        43.000    22192571.888 4        27.000    22192571.854 4  90874872.86604                        27.000
G16  21927910.827 7 115231939.13407                        44.000    21927909.947 4        29.000    21927910.138 4  89791116.75204                        29.000
G20  22472658.868 6 118094615.61606                        41.000    22472657.608 4        25.000    22472657.894 4  92021781.21904                        25.000
G21  24931483.432 6 131015820.77906                        37.000    24931482.292 2        15.000    24931482.500 2 102090246.15202                        15.000
G22  24880566.125 6 130748279.27306                        38.000    24880565.133 2        16.000    24880568.117 2 101881798.37302                        16.000
