% program   : RTKPOST ver.2.4.2
% inp file  : E:\OneDrive - Northeastern University\DPE_PLANS\AcquireRawSignalAndNaviSolution\loadData\SABA1400.20O
% inp file  : E:\OneDrive - Northeastern University\DPE_PLANS\AcquireRawSignalAndNaviSolution\loadData\PLAN00ESP_R_20201400000_01D_GN.rnx
% obs start : 2020/05/19 16:05:00.0 GPST (week2106 230700.0s)
% obs end   : 2020/05/19 16:06:55.0 GPST (week2106 230815.0s)
% pos mode  : single
% elev mask : 15.0 deg
% ionos opt : off
% tropo opt : sbas
% ephemeris : broadcast
%
% (x/y/z-ecef=WGS84,Q=1:fix,2:float,3:sbas,4:dgps,5:single,6:ppp,ns=# of satellites)
%  GPST                      x-ecef(m)      y-ecef(m)      z-ecef(m)   Q  ns   sdx(m)   sdy(m)   sdz(m)  sdxy(m)  sdyz(m)  sdzx(m) age(s)  ratio
2020/05/19 16:05:00.000   4777973.4003    176346.2511   4207666.9615   5   7   8.9922   4.2117   8.0557  -2.9377  -4.0501   6.3850   0.00    0.0
2020/05/19 16:05:01.000   4777973.4288    176346.1847   4207666.8115   5   7   8.9918   4.2115   8.0555  -2.9363  -4.0493   6.3849   0.00    0.0
2020/05/19 16:05:02.000   4777973.5080    176346.2415   4207666.8139   5   7   8.9913   4.2112   8.0552  -2.9350  -4.0485   6.3848   0.00    0.0
2020/05/19 16:05:03.000   4777973.4325    176346.1145   4207666.7078   5   7   8.9909   4.2109   8.0550  -2.9336  -4.0477   6.3847   0.00    0.0
2020/05/19 16:05:04.000   4777973.4812    176346.0785   4207666.5928   5   7   8.9904   4.2106   8.0547  -2.9323  -4.0469   6.3845   0.00    0.0
2020/05/19 16:05:05.000   4777973.3676    176345.9648   4207666.4789   5   7   8.9900   4.2104   8.0545  -2.9309  -4.0461   6.3844   0.00    0.0
2020/05/19 16:05:06.000   4777973.3808    176345.9674   4207666.5703   5   7   8.9895   4.2101   8.0542  -2.9295  -4.0453   6.3843   0.00    0.0
2020/05/19 16:05:07.000   4777973.4566    176345.9139   4207666.7219   5   7   8.9890   4.2098   8.0540  -2.9282  -4.0445   6.3841   0.00    0.0
2020/05/19 16:05:08.000   4777973.6743    176345.9281   4207666.9222   5   7   8.9886   4.2096   8.0537  -2.9268  -4.0437   6.3840   0.00    0.0
2020/05/19 16:05:09.000   4777973.6594    176345.9870   4207666.9196   5   7   8.9881   4.2093   8.0535  -2.9255  -4.0429   6.3839   0.00    0.0
2020/05/19 16:05:10.000   4777973.3940    176346.0184   4207666.8836   5   7   8.9877   4.2090   8.0532  -2.9241  -4.0421   6.3837   0.00    0.0
2020/05/19 16:05:11.000   4777973.2649    176346.0304   4207666.8592   5   7   8.9872   4.2087   8.0530  -2.9227  -4.0413   6.3836   0.00    0.0
2020/05/19 16:05:12.000   4777973.0991    176346.1964   4207666.7747   5   7   8.9868   4.2085   8.0527  -2.9214  -4.0405   6.3835   0.00    0.0
2020/05/19 16:05:13.000   4777973.2537    176346.1259   4207666.8950   5   7   8.9863   4.2082   8.0525  -2.9200  -4.0397   6.3833   0.00    0.0
2020/05/19 16:05:14.000   4777973.1862    176346.0208   4207666.8404   5   7   8.9858   4.2079   8.0522  -2.9186  -4.0389   6.3832   0.00    0.0
2020/05/19 16:05:15.000   4777973.2028    176345.9877   4207666.5168   5   7   8.9854   4.2076   8.0520  -2.9173  -4.0381   6.3830   0.00    0.0
2020/05/19 16:05:16.000   4777973.1640    176346.0096   4207666.5759   5   7   8.9849   4.2074   8.0517  -2.9159  -4.0373   6.3829   0.00    0.0
2020/05/19 16:05:17.000   4777973.2709    176345.9674   4207666.6517   5   7   8.9845   4.2071   8.0514  -2.9145  -4.0365   6.3828   0.00    0.0
2020/05/19 16:05:18.000   4777973.2637    176345.9256   4207666.8844   5   7   8.9840   4.2068   8.0512  -2.9132  -4.0356   6.3826   0.00    0.0
2020/05/19 16:05:19.000   4777973.3739    176345.8950   4207666.9279   5   7   8.9836   4.2065   8.0509  -2.9118  -4.0348   6.3825   0.00    0.0
2020/05/19 16:05:20.000   4777973.4529    176345.9308   4207666.9964   5   7   8.9831   4.2063   8.0507  -2.9104  -4.0340   6.3824   0.00    0.0
2020/05/19 16:05:21.000   4777973.4775    176345.9541   4207666.8861   5   7   8.9826   4.2060   8.0504  -2.9090  -4.0332   6.3822   0.00    0.0
2020/05/19 16:05:22.000   4777973.4777    176345.9543   4207666.8748   5   7   8.9822   4.2057   8.0502  -2.9077  -4.0324   6.3821   0.00    0.0
2020/05/19 16:05:23.000   4777973.5777    176346.0376   4207666.8598   5   7   8.9817   4.2055   8.0499  -2.9063  -4.0316   6.3819   0.00    0.0
2020/05/19 16:05:24.000   4777973.6750    176346.1294   4207666.9841   5   7   8.9813   4.2052   8.0496  -2.9049  -4.0308   6.3818   0.00    0.0
2020/05/19 16:05:25.000   4777973.5627    176346.2053   4207667.0267   5   7   8.9808   4.2049   8.0494  -2.9035  -4.0300   6.3816   0.00    0.0
2020/05/19 16:05:26.000   4777973.3812    176346.2025   4207666.8264   5   7   8.9803   4.2046   8.0491  -2.9022  -4.0292   6.3815   0.00    0.0
2020/05/19 16:05:27.000   4777973.4246    176346.1256   4207666.7743   5   7   8.9799   4.2044   8.0488  -2.9008  -4.0283   6.3814   0.00    0.0
2020/05/19 16:05:28.000   4777973.5561    176346.1022   4207666.8130   5   7   8.9794   4.2041   8.0486  -2.8994  -4.0275   6.3812   0.00    0.0
2020/05/19 16:05:29.000   4777973.5949    176346.0529   4207666.9207   5   7   8.9790   4.2038   8.0483  -2.8980  -4.0267   6.3811   0.00    0.0
2020/05/19 16:05:30.000   4777973.6194    176345.9306   4207666.9086   5   7   8.9785   4.2036   8.0481  -2.8966  -4.0259   6.3809   0.00    0.0
2020/05/19 16:05:31.000   4777973.3816    176345.9685   4207666.5633   5   7   8.9780   4.2033   8.0478  -2.8953  -4.0251   6.3808   0.00    0.0
2020/05/19 16:05:32.000   4777973.2490    176345.9413   4207666.4981   5   7   8.9776   4.2030   8.0475  -2.8939  -4.0243   6.3806   0.00    0.0
2020/05/19 16:05:33.000   4777973.1509    176345.9581   4207666.3580   5   7   8.9771   4.2027   8.0473  -2.8925  -4.0234   6.3805   0.00    0.0
2020/05/19 16:05:34.000   4777972.8674    176345.9442   4207666.1761   5   7   8.9767   4.2025   8.0470  -2.8911  -4.0226   6.3803   0.00    0.0
2020/05/19 16:05:35.000   4777972.8821    176345.9123   4207666.2975   5   7   8.9762   4.2022   8.0467  -2.8897  -4.0218   6.3802   0.00    0.0
2020/05/19 16:05:36.000   4777972.9221    176345.9106   4207666.4080   5   7   8.9757   4.2019   8.0465  -2.8883  -4.0210   6.3800   0.00    0.0
2020/05/19 16:05:37.000   4777973.1395    176345.9187   4207666.6178   5   7   8.9753   4.2017   8.0462  -2.8870  -4.0202   6.3799   0.00    0.0
2020/05/19 16:05:38.000   4777973.2199    176345.8359   4207666.5608   5   7   8.9748   4.2014   8.0459  -2.8856  -4.0194   6.3798   0.00    0.0
2020/05/19 16:05:39.000   4777973.1898    176345.9260   4207666.5828   5   7   8.9743   4.2011   8.0456  -2.8842  -4.0185   6.3796   0.00    0.0
2020/05/19 16:05:40.000   4777973.1008    176345.9047   4207666.5249   5   7   8.9739   4.2008   8.0454  -2.8828  -4.0177   6.3795   0.00    0.0
2020/05/19 16:05:41.000   4777973.2278    176346.0010   4207666.6330   5   7   8.9734   4.2006   8.0451  -2.8814  -4.0169   6.3793   0.00    0.0
2020/05/19 16:05:42.000   4777973.5941    176345.8974   4207666.8206   5   7   8.9729   4.2003   8.0448  -2.8800  -4.0161   6.3791   0.00    0.0
2020/05/19 16:05:43.000   4777973.8169    176345.8383   4207667.0983   5   7   8.9725   4.2000   8.0446  -2.8786  -4.0152   6.3790   0.00    0.0
2020/05/19 16:05:44.000   4777973.6517    176345.8083   4207667.0760   5   7   8.9720   4.1998   8.0443  -2.8772  -4.0144   6.3788   0.00    0.0
2020/05/19 16:05:45.000   4777973.4821    176345.8295   4207667.0768   5   7   8.9716   4.1995   8.0440  -2.8758  -4.0136   6.3787   0.00    0.0
2020/05/19 16:05:46.000   4777973.5412    176345.8986   4207667.1348   5   7   8.9711   4.1992   8.0437  -2.8744  -4.0128   6.3785   0.00    0.0
2020/05/19 16:05:47.000   4777973.7597    176345.8647   4207667.2553   5   7   8.9706   4.1989   8.0435  -2.8731  -4.0119   6.3784   0.00    0.0
2020/05/19 16:05:48.000   4777973.9662    176346.0119   4207667.3151   5   7   8.9702   4.1987   8.0432  -2.8717  -4.0111   6.3782   0.00    0.0
2020/05/19 16:05:49.000   4777974.1170    176345.9490   4207667.3043   5   7   8.9697   4.1984   8.0429  -2.8703  -4.0103   6.3781   0.00    0.0
2020/05/19 16:05:50.000   4777974.1071    176345.9378   4207667.2028   5   7   8.9692   4.1981   8.0426  -2.8689  -4.0095   6.3779   0.00    0.0
2020/05/19 16:05:51.000   4777973.7650    176345.9659   4207667.0211   5   7   8.9688   4.1979   8.0423  -2.8675  -4.0086   6.3778   0.00    0.0
2020/05/19 16:05:52.000   4777973.5507    176345.9192   4207667.0120   5   7   8.9683   4.1976   8.0421  -2.8661  -4.0078   6.3776   0.00    0.0
2020/05/19 16:05:53.000   4777973.3346    176345.8509   4207666.7342   5   7   8.9678   4.1973   8.0418  -2.8647  -4.0070   6.3774   0.00    0.0
2020/05/19 16:05:54.000   4777973.2791    176345.8933   4207666.6809   5   7   8.9674   4.1971   8.0415  -2.8633  -4.0062   6.3773   0.00    0.0
2020/05/19 16:05:55.000   4777973.2772    176345.9070   4207666.6030   5   7   8.9669   4.1968   8.0412  -2.8619  -4.0053   6.3771   0.00    0.0
2020/05/19 16:05:56.000   4777973.1632    176345.9451   4207666.6494   5   7   8.9664   4.1965   8.0410  -2.8605  -4.0045   6.3770   0.00    0.0
2020/05/19 16:05:57.000   4777973.3649    176345.9423   4207666.6202   5   7   8.9660   4.1962   8.0407  -2.8591  -4.0037   6.3768   0.00    0.0
2020/05/19 16:05:58.000   4777973.4909    176345.9020   4207666.7666   5   7   8.9655   4.1960   8.0404  -2.8577  -4.0028   6.3767   0.00    0.0
2020/05/19 16:05:59.000   4777973.3185    176345.9355   4207666.6950   5   7   8.9650   4.1957   8.0401  -2.8563  -4.0020   6.3765   0.00    0.0
2020/05/19 16:06:00.000   4777973.1426    176345.9505   4207666.5865   5   7   8.9646   4.1954   8.0398  -2.8549  -4.0012   6.3763   0.00    0.0
2020/05/19 16:06:01.000   4777973.1155    176345.9824   4207666.5783   5   7   8.9641   4.1952   8.0395  -2.8534  -4.0003   6.3762   0.00    0.0
2020/05/19 16:06:02.000   4777973.3062    176345.9660   4207666.7112   5   7   8.9636   4.1949   8.0393  -2.8520  -3.9995   6.3760   0.00    0.0
2020/05/19 16:06:03.000   4777973.1076    176345.9464   4207666.6680   5   7   8.9632   4.1946   8.0390  -2.8506  -3.9987   6.3758   0.00    0.0
2020/05/19 16:06:04.000   4777973.0555    176345.9304   4207666.5183   5   7   8.9627   4.1944   8.0387  -2.8492  -3.9978   6.3757   0.00    0.0
2020/05/19 16:06:05.000   4777973.2280    176345.8794   4207666.6302   5   7   8.9622   4.1941   8.0384  -2.8478  -3.9970   6.3755   0.00    0.0
2020/05/19 16:06:06.000   4777973.4326    176345.8761   4207666.6611   5   7   8.9617   4.1938   8.0381  -2.8464  -3.9962   6.3754   0.00    0.0
2020/05/19 16:06:07.000   4777973.7301    176345.8634   4207666.8096   5   7   8.9613   4.1936   8.0378  -2.8450  -3.9953   6.3752   0.00    0.0
2020/05/19 16:06:08.000   4777973.4864    176345.8906   4207666.5565   5   7   8.9608   4.1933   8.0375  -2.8436  -3.9945   6.3750   0.00    0.0
2020/05/19 16:06:09.000   4777973.5623    176345.9761   4207666.6379   5   7   8.9603   4.1930   8.0372  -2.8422  -3.9937   6.3749   0.00    0.0
2020/05/19 16:06:10.000   4777973.5278    176345.9809   4207666.7288   5   7   8.9599   4.1927   8.0370  -2.8408  -3.9928   6.3747   0.00    0.0
2020/05/19 16:06:11.000   4777973.3314    176345.7800   4207666.6988   5   7   8.9594   4.1925   8.0367  -2.8393  -3.9920   6.3745   0.00    0.0
2020/05/19 16:06:12.000   4777973.2780    176345.7072   4207666.6307   5   7   8.9589   4.1922   8.0364  -2.8379  -3.9911   6.3744   0.00    0.0
2020/05/19 16:06:13.000   4777973.3633    176345.7237   4207666.7633   5   7   8.9585   4.1919   8.0361  -2.8365  -3.9903   6.3742   0.00    0.0
2020/05/19 16:06:14.000   4777973.5295    176345.6615   4207666.6596   5   7   8.9580   4.1917   8.0358  -2.8351  -3.9895   6.3740   0.00    0.0
2020/05/19 16:06:15.000   4777973.5002    176345.7000   4207666.7920   5   7   8.9575   4.1914   8.0355  -2.8337  -3.9886   6.3738   0.00    0.0
2020/05/19 16:06:16.000   4777973.5502    176345.8314   4207666.9026   5   7   8.9570   4.1911   8.0352  -2.8323  -3.9878   6.3737   0.00    0.0
2020/05/19 16:06:17.000   4777973.4963    176345.8286   4207666.8930   5   7   8.9566   4.1909   8.0349  -2.8308  -3.9869   6.3735   0.00    0.0
2020/05/19 16:06:18.000   4777973.1696    176345.9325   4207666.5903   5   7   8.9561   4.1906   8.0346  -2.8294  -3.9861   6.3733   0.00    0.0
2020/05/19 16:06:19.000   4777973.2265    176345.8006   4207666.6502   5   7   8.9556   4.1903   8.0343  -2.8280  -3.9853   6.3732   0.00    0.0
2020/05/19 16:06:20.000   4777973.3617    176345.7270   4207666.8696   5   7   8.9552   4.1901   8.0340  -2.8266  -3.9844   6.3730   0.00    0.0
2020/05/19 16:06:21.000   4777973.2216    176345.6360   4207667.0607   5   7   8.9547   4.1898   8.0337  -2.8252  -3.9836   6.3728   0.00    0.0
2020/05/19 16:06:22.000   4777973.0491    176345.8477   4207667.0743   5   7   8.9542   4.1895   8.0334  -2.8237  -3.9827   6.3726   0.00    0.0
2020/05/19 16:06:23.000   4777972.7143    176345.9570   4207666.7444   5   7   8.9537   4.1893   8.0331  -2.8223  -3.9819   6.3725   0.00    0.0
2020/05/19 16:06:24.000   4777972.7895    176346.0059   4207666.8324   5   7   8.9533   4.1890   8.0328  -2.8209  -3.9810   6.3723   0.00    0.0
2020/05/19 16:06:25.000   4777972.8855    176346.1121   4207666.8814   5   7   8.9528   4.1887   8.0325  -2.8195  -3.9802   6.3721   0.00    0.0
2020/05/19 16:06:26.000   4777973.0348    176345.9661   4207666.8959   5   7   8.9523   4.1885   8.0322  -2.8180  -3.9794   6.3720   0.00    0.0
2020/05/19 16:06:27.000   4777973.4060    176346.0384   4207666.8659   5   7   8.9518   4.1882   8.0319  -2.8166  -3.9785   6.3718   0.00    0.0
2020/05/19 16:06:28.000   4777973.4243    176346.0135   4207666.6940   5   7   8.9514   4.1879   8.0316  -2.8152  -3.9777   6.3716   0.00    0.0
2020/05/19 16:06:29.000   4777973.4272    176346.0481   4207666.6705   5   7   8.9509   4.1877   8.0313  -2.8137  -3.9768   6.3714   0.00    0.0
2020/05/19 16:06:30.000   4777973.4703    176346.0642   4207666.7085   5   7   8.9504   4.1874   8.0310  -2.8123  -3.9760   6.3712   0.00    0.0
2020/05/19 16:06:31.000   4777973.3545    176346.0569   4207666.6096   5   7   8.9499   4.1871   8.0307  -2.8109  -3.9751   6.3711   0.00    0.0
2020/05/19 16:06:32.000   4777973.1146    176346.1327   4207666.3601   5   7   8.9495   4.1869   8.0304  -2.8094  -3.9743   6.3709   0.00    0.0
2020/05/19 16:06:33.000   4777973.1190    176346.1063   4207666.4491   5   7   8.9490   4.1866   8.0301  -2.8080  -3.9734   6.3707   0.00    0.0
2020/05/19 16:06:34.000   4777973.1202    176346.1539   4207666.4624   5   7   8.9485   4.1863   8.0298  -2.8066  -3.9726   6.3705   0.00    0.0
2020/05/19 16:06:35.000   4777973.1538    176346.0334   4207666.4814   5   7   8.9480   4.1861   8.0295  -2.8051  -3.9717   6.3704   0.00    0.0
2020/05/19 16:06:36.000   4777973.0657    176345.9744   4207666.2369   5   7   8.9476   4.1858   8.0292  -2.8037  -3.9709   6.3702   0.00    0.0
2020/05/19 16:06:37.000   4777973.0842    176345.9460   4207666.2606   5   7   8.9471   4.1855   8.0289  -2.8023  -3.9700   6.3700   0.00    0.0
2020/05/19 16:06:38.000   4777973.1938    176345.9432   4207666.3090   5   7   8.9466   4.1853   8.0286  -2.8008  -3.9692   6.3698   0.00    0.0
2020/05/19 16:06:39.000   4777973.2761    176345.9498   4207666.4756   5   7   8.9461   4.1850   8.0283  -2.7994  -3.9683   6.3696   0.00    0.0
2020/05/19 16:06:40.000   4777973.5551    176345.9165   4207666.4398   5   7   8.9457   4.1847   8.0280  -2.7980  -3.9675   6.3694   0.00    0.0
2020/05/19 16:06:41.000   4777973.7323    176346.0019   4207666.5334   5   7   8.9452   4.1845   8.0277  -2.7965  -3.9666   6.3693   0.00    0.0
2020/05/19 16:06:42.000   4777973.7066    176346.0206   4207666.6190   5   7   8.9447   4.1842   8.0274  -2.7951  -3.9657   6.3691   0.00    0.0
2020/05/19 16:06:43.000   4777973.6395    176346.0367   4207666.4824   5   7   8.9442   4.1839   8.0271  -2.7936  -3.9649   6.3689   0.00    0.0
2020/05/19 16:06:44.000   4777973.8063    176346.0116   4207666.6330   5   7   8.9437   4.1837   8.0268  -2.7922  -3.9640   6.3687   0.00    0.0
2020/05/19 16:06:45.000   4777973.6834    176345.9537   4207666.7211   5   7   8.9433   4.1834   8.0264  -2.7907  -3.9632   6.3685   0.00    0.0
2020/05/19 16:06:46.000   4777973.6620    176345.9054   4207666.9415   5   7   8.9428   4.1831   8.0261  -2.7893  -3.9623   6.3683   0.00    0.0
2020/05/19 16:06:47.000   4777973.5912    176345.8694   4207666.8068   5   7   8.9423   4.1829   8.0258  -2.7879  -3.9615   6.3682   0.00    0.0
2020/05/19 16:06:48.000   4777973.7233    176345.9202   4207666.9500   5   7   8.9418   4.1826   8.0255  -2.7864  -3.9606   6.3680   0.00    0.0
2020/05/19 16:06:49.000   4777973.6490    176346.0454   4207666.9598   5   7   8.9413   4.1823   8.0252  -2.7850  -3.9598   6.3678   0.00    0.0
2020/05/19 16:06:50.000   4777973.6373    176346.0923   4207666.9845   5   7   8.9409   4.1821   8.0249  -2.7835  -3.9589   6.3676   0.00    0.0
2020/05/19 16:06:51.000   4777973.6269    176346.1342   4207666.8668   5   7   8.9404   4.1818   8.0246  -2.7821  -3.9580   6.3674   0.00    0.0
2020/05/19 16:06:52.000   4777973.4509    176346.1815   4207666.5729   5   7   8.9399   4.1815   8.0243  -2.7806  -3.9572   6.3672   0.00    0.0
2020/05/19 16:06:53.000   4777973.4169    176346.1244   4207666.5113   5   7   8.9394   4.1813   8.0239  -2.7792  -3.9563   6.3670   0.00    0.0
2020/05/19 16:06:54.000   4777973.2847    176345.9355   4207666.4643   5   7   8.9389   4.1810   8.0236  -2.7777  -3.9555   6.3668   0.00    0.0
2020/05/19 16:06:55.000   4777973.1777    176345.8648   4207666.3799   5   7   8.9385   4.1807   8.0233  -2.7763  -3.9546   6.3666   0.00    0.0
